[
    {
        "address": "20 Cardinal Hayes Place, Rectory Basement,",
        "title": "A DESIGN FOR LIVING -",
        "hours": "Thursdays From  7:00 AM to 8:00 AM Meeting Type OD = Open Discussion meeting\nTuesdays From  7:00 AM to 8:00 AM Meeting Type B = Beginners meeting",
        "wheelchairAccess": false
    },
    {
        "address": "20 Cardinal Hayes Place, Enter through driveway behind Church.,",
        "title": "CHAMBERS STREET - A BRIDGE BACK - Chambers Street - A Bridge Back",
        "hours": "Mondays From  12:15 PM to 1:15 PM Meeting Type OD = Open Discussion meeting\nWednesdays From  12:15 PM to 1:15 PM Meeting Type S = Step meeting\nThursdays From  12:15 PM to 1:15 PM Meeting Type B = Beginners meeting\nFridays From  12:15 PM to 1:15 PM Meeting Type BB = Big Book meeting",
        "wheelchairAccess": false
    },
    {
        "address": "29 Mott Street, Basement,",
        "title": "CHINATOWN - Chinatown",
        "hours": "Tuesdays From  6:30 PM to 7:30 PM Meeting Type C = Closed Discussion meeting",
        "wheelchairAccess": false
    },
    {
        "address": "49 Fulton Street, 1st Floor Library,",
        "title": "DOWNTOWN -",
        "hours": "Mondays From  7:00 PM to 8:00 PM Meeting Type OD = Open Discussion meeting",
        "wheelchairAccess": true
    },
    {
        "address": "44 John Street,",
        "title": "EXCHANGE VIEWS @ JOHN STREET CHURCH -",
        "hours": "Mondays From  12:15 PM to 1:15 PM Meeting Type OD = Open Discussion meeting\nTuesdays From  12:15 PM to 1:15 PM Meeting Type S = Step meeting\nThursdays From  12:15 PM to 1:15 PM Meeting Type OD = Open Discussion meeting\nMondays From  1:30 PM to 2:30 PM Meeting Type B = Beginners meeting Special Interest Living Sober\nThursdays From  1:30 PM to 2:30 PM Meeting Type S = Step meeting",
        "wheelchairAccess": false
    },
    {
        "address": "49 Fulton Street,",
        "title": "EXCHANGE VIEWS @ ST. MARGARET'S HOUSE -",
        "hours": "Mondays From  6:30 AM to 7:30 AM Meeting Type C = Closed Discussion meeting Special Interest Topic\nTuesdays From  6:30 AM to 7:30 AM Meeting Type C = Closed Discussion meeting\nWednesdays From  6:30 AM to 7:30 AM Meeting Type C = Closed Discussion meeting Special Interest Topic\nThursdays From  6:30 AM to 7:30 AM Meeting Type S = Step meeting\nFridays From  6:30 AM to 7:30 AM Meeting Type BB = Big Book meeting\nMondays From  7:30 AM to 8:30 AM Meeting Type S = Step meeting\nTuesdays From  7:30 AM to 8:30 AM Meeting Type OD = Open Discussion meeting\nWednesdays From  7:30 AM to 8:30 AM Meeting Type OD = Open Discussion meeting\nThursdays From  7:30 AM to 8:30 AM Meeting Type OD = Open Discussion meeting\nFridays From  7:30 AM to 8:30 AM Meeting Type B = Beginners meeting\nSundays From  7:45 AM to 8:45 AM Meeting Type OD = Open Discussion meeting Special Interest Round-Robin Meeting Format\nSaturdays From  7:45 AM to 8:45 AM Meeting Type OD = Open Discussion meeting Special Interest Round-Robin Meeting Format\nFridays From  5:30 PM to 6:30 PM Meeting Type B = Beginners meeting",
        "wheelchairAccess": true
    },
    {
        "address": "20 Cardinal Hayes Place, Enter thru driveway behind Church.,",
        "title": "FRIDAY DOWNTOWN - Friday Downtown",
        "hours": "Fridays From  6:00 PM to 7:00 PM Meeting Type OD = Open Discussion meeting",
        "wheelchairAccess": true
    },
    {
        "address": "22 Barclay Street,",
        "title": "GATEWAY - Gateway",
        "hours": "Sundays From  6:00 PM to 7:00 PM Meeting Type BB = Big Book meeting",
        "wheelchairAccess": false
    },
    {
        "address": "20 Cardinal Hayes Place, Enter thru driveway behind Church.,",
        "title": "PASSING THE BAR - Passing The Bar",
        "hours": "Mondays From  1:15 PM to 2:15 PM Meeting Type B = Beginners meeting\nTuesdays From  1:15 PM to 2:15 PM Meeting Type C = Closed Discussion meeting\nWednesdays From  1:15 PM to 2:15 PM Meeting Type C = Closed Discussion meeting Special Interest Promises\nThursdays From  1:15 PM to 2:15 PM Meeting Type S = Step meeting\nFridays From  1:15 PM to 2:15 PM Meeting Type BB = Big Book meeting",
        "wheelchairAccess": true
    },
    {
        "address": "22 Barclay Street (Basement),",
        "title": "S.O.B.E.R. -",
        "hours": "Thursdays From  7:30 PM to 8:45 PM Meeting Type OD = Open Discussion meeting",
        "wheelchairAccess": false
    },
    {
        "address": "283 West Broadway,",
        "title": "SANE AND SOBER -",
        "hours": "Wednesdays From  7:00 PM to 8:00 PM Meeting Type C = Closed Discussion meeting Special Interest Mental Health Issues in Sobriety",
        "wheelchairAccess": true
    },
    {
        "address": "125 Barclay Street,",
        "title": "SATURDAY AFTERNOON DISCUSSION - Saturday Afternoon Discussion",
        "hours": "Saturdays From  2:00 PM to 3:15 PM Meeting Type OD = Open Discussion meeting",
        "wheelchairAccess": false
    },
    {
        "address": "49 Fulton Street, Conference Room #1,",
        "title": "SEAMEN'S GROUP -",
        "hours": "Tuesdays From  6:00 PM to 7:00 PM Meeting Type S = Step meeting",
        "wheelchairAccess": true
    },
    {
        "address": "49 Fulton Street,",
        "title": "SEAPORT - Seaport",
        "hours": "Thursdays From  12:15 PM to 1:15 PM Meeting Type C = Closed Discussion meeting\nFridays From  12:15 PM to 1:15 PM Meeting Type S = Step meeting\nMondays From  12:15 PM to 1:15 PM Meeting Type S = Step meeting Special Interest Meditation\nWednesdays From  12:15 PM to 1:15 PM Meeting Type BB = Big Book meeting\nTuesdays From  12:15 PM to 1:15 PM Meeting Type B = Beginners meeting",
        "wheelchairAccess": true
    },
    {
        "address": "20 Cardinal Hayes Place,",
        "title": "TOWER -",
        "hours": "Wednesdays From  5:30 PM to 6:30 PM Meeting Type OD = Open Discussion meeting",
        "wheelchairAccess": false
    },
    {
        "address": "283 West Broadway,",
        "title": "TRIANGLE GROUP -",
        "hours": "Sundays From  11:00 AM to 12:00 PM Meeting Type C = Closed Discussion meeting Special Interest Meditation\nFridays From  12:30 PM to 1:30 PM Meeting Type BB = Big Book meeting\nMondays From  6:30 PM to 7:30 PM Meeting Type C = Closed Discussion meeting\nThursdays From  6:30 PM to 7:30 PM Meeting Type C = Closed Discussion meeting",
        "wheelchairAccess": true
    },
    {
        "address": "49 Fulton Street,",
        "title": "TRIBECA GROUP @ ST. MARGARET'S HOUSE -",
        "hours": "Fridays From  7:30 PM to 8:30 PM Meeting Type S = Step meeting\nSaturdays From  7:30 PM to 8:30 PM Meeting Type OD = Open Discussion meeting\nTuesdays From  7:30 PM to 8:30 PM Meeting Type BB = Big Book meeting\nThursdays From  7:30 PM to 8:30 PM Meeting Type B = Beginners meeting",
        "wheelchairAccess": true
    },
    {
        "address": "22 Barclay Street- basement chapel,",
        "title": "TRIBECA GROUP @ ST. PETER'S CHURCH - Tribeca",
        "hours": "Mondays From  7:45 PM to 8:45 PM Meeting Type S = Step meeting\nWednesdays From  8:00 PM to 9:00 PM Meeting Type OD = Open Discussion meeting",
        "wheelchairAccess": false
    },
    {
        "address": "20 Cardinal Hayes Place,",
        "title": "WOMEN'S DOWNTOWN AA STEP MEETING -",
        "hours": "Wednesdays From  1:15 PM to 2:15 PM Meeting Type S = Step meeting",
        "wheelchairAccess": false
    },
    {
        "address": "283 West Broadway,",
        "title": "YOUNG PEOPLE'S DIVERSITY -",
        "hours": "Wednesdays From  8:30 PM to 9:30 PM Meeting Type C = Closed Discussion meeting Special Interest Gay, Lesbian and Bisexual",
        "wheelchairAccess": false
    },
    {
        "address": "283 West Broadway,",
        "title": "YOUNG PEOPLE'S STEP -",
        "hours": "Tuesdays From  7:45 PM to 8:45 PM Meeting Type C = Closed Discussion meeting Special Interest Young People",
        "wheelchairAccess": true
    },
    {
        "address": "283 W. Broadway,",
        "title": "YOUTH ENJOYING SOBRIETY (Y.E.S.) - Youth Enjoying Sobriety (Yes)",
        "hours": "Saturdays From  7:00 PM to 8:15 PM Meeting Type B = Beginners meeting Special Interest Young People",
        "wheelchairAccess": true
    }
]